[
  {
    "name": "Goroka",
    "city": "Goroka, Papua New Guinea",
    "iata_faa": "GKA",
    "icao": "AYGA",
    "lat": -6.081689,
    "lng": 145.391881,
    "alt": 5282,
    "tz": "Pacific/Port_Moresby"
  },
  {
    "name": "Madang",
    "city": "Madang, Papua New Guinea",
    "iata_faa": "MAG",
    "icao": "AYMD",
    "lat": -5.207083,
    "lng": 145.7887,
    "alt": 20,
    "tz": "Pacific/Port_Moresby"
  },
  {
    "name": "Mount Hagen",
    "city": "Mount Hagen, Papua New Guinea",
    "iata_faa": "HGU",
    "icao": "AYMH",
    "lat": -5.826789,
    "lng": 144.295861,
    "alt": 5388,
    "tz": "Pacific/Port_Moresby"
  },
  {
    "name": "Nadzab",
    "city": "Nadzab, Papua New Guinea",
    "iata_faa": "LAE",
    "icao": "AYNZ",
    "lat": -6.569828,
    "lng": 146.726242,
    "alt": 239,
    "tz": "Pacific/Port_Moresby"
  },
  {
    "name": "Port Moresby Jacksons Intl",
    "city": "Port Moresby, Papua New Guinea",
    "iata_faa": "POM",
    "icao": "AYPY",
    "lat": -9.443383,
    "lng": 147.22005,
    "alt": 146,
    "tz": "Pacific/Port_Moresby"
  },
  {
    "name": "Wewak Intl",
    "city": "Wewak, Papua New Guinea",
    "iata_faa": "WWK",
    "icao": "AYWK",
    "lat": -3.583828,
    "lng": 143.669186,
    "alt": 19,
    "tz": "Pacific/Port_Moresby"
  },
  {
    "name": "Narsarsuaq",
    "city": "Narssarssuaq, Greenland",
    "iata_faa": "UAK",
    "icao": "BGBW",
    "lat": 61.160517,
    "lng": -45.425978,
    "alt": 112,
    "tz": "America/Godthab"
  },
  {
    "name": "Nuuk",
    "city": "Godthaab, Greenland",
    "iata_faa": "GOH",
    "icao": "BGGH",
    "lat": 64.190922,
    "lng": -51.678064,
    "alt": 283,
    "tz": "America/Godthab"
  },
  {
    "name": "Sondre Stromfjord",
    "city": "Sondrestrom, Greenland",
    "iata_faa": "SFJ",
    "icao": "BGSF",
    "lat": 67.016969,
    "lng": -50.689325,
    "alt": 165,
    "tz": "America/Godthab"
  },
  {
    "name": "Thule Air Base",
    "city": "Thule, Greenland",
    "iata_faa": "THU",
    "icao": "BGTL",
    "lat": 76.531203,
    "lng": -68.703161,
    "alt": 251,
    "tz": "America/Thule"
  },
  {
    "name": "Akureyri",
    "city": "Akureyri, Iceland",
    "iata_faa": "AEY",
    "icao": "BIAR",
    "lat": 65.659994,
    "lng": -18.072703,
    "alt": 6,
    "tz": "Atlantic/Reykjavik"
  },
  {
    "name": "Egilsstadir",
    "city": "Egilsstadir, Iceland",
    "iata_faa": "EGS",
    "icao": "BIEG",
    "lat": 65.283333,
    "lng": -14.401389,
    "alt": 76,
    "tz": "Atlantic/Reykjavik"
  },
  {
    "name": "Hornafjordur",
    "city": "Hofn, Iceland",
    "iata_faa": "HFN",
    "icao": "BIHN",
    "lat": 64.295556,
    "lng": -15.227222,
    "alt": 24,
    "tz": "Atlantic/Reykjavik"
  },
  {
    "name": "Husavik",
    "city": "Husavik, Iceland",
    "iata_faa": "HZK",
    "icao": "BIHU",
    "lat": 65.952328,
    "lng": -17.425978,
    "alt": 48,
    "tz": "Atlantic/Reykjavik"
  },
  {
    "name": "Isafjordur",
    "city": "Isafjordur, Iceland",
    "iata_faa": "IFJ",
    "icao": "BIIS",
    "lat": 66.058056,
    "lng": -23.135278,
    "alt": 8,
    "tz": "Atlantic/Reykjavik"
  },
  {
    "name": "Keflavik International Airport",
    "city": "Keflavik, Iceland",
    "iata_faa": "KEF",
    "icao": "BIKF",
    "lat": 63.985,
    "lng": -22.605556,
    "alt": 171,
    "tz": "Atlantic/Reykjavik"
  },
  {
    "name": "Patreksfjordur",
    "city": "Patreksfjordur, Iceland",
    "iata_faa": "PFJ",
    "icao": "BIPA",
    "lat": 65.555833,
    "lng": -23.965,
    "alt": 11,
    "tz": "Atlantic/Reykjavik"
  },
  {
    "name": "Reykjavik",
    "city": "Reykjavik, Iceland",
    "iata_faa": "RKV",
    "icao": "BIRK",
    "lat": 64.13,
    "lng": -21.940556,
    "alt": 48,
    "tz": "Atlantic/Reykjavik"
  },
  {
    "name": "Siglufjordur",
    "city": "Siglufjordur, Iceland",
    "iata_faa": "SIJ",
    "icao": "BISI",
    "lat": 66.133333,
    "lng": -18.916667,
    "alt": 10,
    "tz": "Atlantic/Reykjavik"
  },
  {
    "name": "Vestmannaeyjar",
    "city": "Vestmannaeyjar, Iceland",
    "iata_faa": "VEY",
    "icao": "BIVM",
    "lat": 63.424303,
    "lng": -20.278875,
    "alt": 326,
    "tz": "Atlantic/Reykjavik"
  },
  {
    "name": "Sault Ste Marie",
    "city": "Sault Sainte Marie, Canada",
    "iata_faa": "YAM",
    "icao": "CYAM",
    "lat": 46.485001,
    "lng": -84.509445,
    "alt": 630,
    "tz": "America/Toronto"
  },
  {
    "name": "Winnipeg St Andrews",
    "city": "Winnipeg, Canada",
    "iata_faa": "YAV",
    "icao": "CYAV",
    "lat": 50.056389,
    "lng": -97.0325,
    "alt": 760,
    "tz": "America/Winnipeg"
  },
  {
    "name": "Shearwater",
    "city": "Halifax, Canada",
    "iata_faa": "YAW",
    "icao": "CYAW",
    "lat": 44.639721,
    "lng": -63.499444,
    "alt": 167,
    "tz": "America/Halifax"
  },
  {
    "name": "St Anthony",
    "city": "St. Anthony, Canada",
    "iata_faa": "YAY",
    "icao": "CYAY",
    "lat": 51.391944,
    "lng": -56.083056,
    "alt": 108,
    "tz": "America/St_Johns"
  },
  {
    "name": "Tofino",
    "city": "Tofino, Canada",
    "iata_faa": "YAZ",
    "icao": "CYAZ",
    "lat": 49.082222,
    "lng": -125.7725,
    "alt": 80,
    "tz": "America/Vancouver"
  },
  {
    "name": "Kugaaruk",
    "city": "Pelly Bay, Canada",
    "iata_faa": "YBB",
    "icao": "CYBB",
    "lat": 68.534444,
    "lng": -89.808056,
    "alt": 56,
    "tz": "America/Edmonton"
  },
  {
    "name": "Baie Comeau",
    "city": "Baie Comeau, Canada",
    "iata_faa": "YBC",
    "icao": "CYBC",
    "lat": 49.1325,
    "lng": -68.204444,
    "alt": 71,
    "tz": "America/Toronto"
  },
  {
    "name": "Bagotville",
    "city": "Bagotville, Canada",
    "iata_faa": "YBG",
    "icao": "CYBG",
    "lat": 48.330555,
    "lng": -70.996391,
    "alt": 522,
    "tz": "America/Toronto"
  },
  {
    "name": "Baker Lake",
    "city": "Baker Lake, Canada",
    "iata_faa": "YBK",
    "icao": "CYBK",
    "lat": 64.298889,
    "lng": -96.077778,
    "alt": 59,
    "tz": "America/Winnipeg"
  },
  {
    "name": "Campbell River",
    "city": "Campbell River, Canada",
    "iata_faa": "YBL",
    "icao": "CYBL",
    "lat": 49.950832,
    "lng": -125.270833,
    "alt": 346,
    "tz": "America/Vancouver"
  },
  {
    "name": "Brandon Muni",
    "city": "Brandon, Canada",
    "iata_faa": "YBR",
    "icao": "CYBR",
    "lat": 49.91,
    "lng": -99.951944,
    "alt": 1343,
    "tz": "America/Winnipeg"
  },
  {
    "name": "Cambridge Bay",
    "city": "Cambridge Bay, Canada",
    "iata_faa": "YCB",
    "icao": "CYCB",
    "lat": 69.108055,
    "lng": -105.138333,
    "alt": 90,
    "tz": "America/Edmonton"
  },
  {
    "name": "Nanaimo",
    "city": "Nanaimo, Canada",
    "iata_faa": "YCD",
    "icao": "CYCD",
    "lat": 49.052333,
    "lng": -123.870167,
    "alt": 93,
    "tz": "America/Vancouver"
  },
  {
    "name": "Castlegar",
    "city": "Castlegar, Canada",
    "iata_faa": "YCG",
    "icao": "CYCG",
    "lat": 49.296389,
    "lng": -117.6325,
    "alt": 1624,
    "tz": "America/Vancouver"
  },
  {
    "name": "Miramichi",
    "city": "Chatham, Canada",
    "iata_faa": "YCH",
    "icao": "CYCH",
    "lat": 47.007778,
    "lng": -65.449167,
    "alt": 108,
    "tz": "America/Halifax"
  },
  {
    "name": "Charlo",
    "city": "Charlo, Canada",
    "iata_faa": "YCL",
    "icao": "CYCL",
    "lat": 47.990833,
    "lng": -66.330278,
    "alt": 132,
    "tz": "America/Halifax"
  },
  {
    "name": "Kugluktuk",
    "city": "Coppermine, Canada",
    "iata_faa": "YCO",
    "icao": "CYCO",
    "lat": 67.816667,
    "lng": -115.143889,
    "alt": 74,
    "tz": "America/Edmonton"
  },
  {
    "name": "Coronation",
    "city": "Coronation, Canada",
    "iata_faa": "YCT",
    "icao": "CYCT",
    "lat": 52.075001,
    "lng": -111.445278,
    "alt": 2595,
    "tz": "America/Edmonton"
  },
  {
    "name": "Chilliwack",
    "city": "Chilliwack, Canada",
    "iata_faa": "YCW",
    "icao": "CYCW",
    "lat": 49.152779,
    "lng": -121.93889,
    "alt": 32,
    "tz": "America/Vancouver"
  },
  {
    "name": "Clyde River",
    "city": "Clyde River, Canada",
    "iata_faa": "YCY",
    "icao": "CYCY",
    "lat": 70.486111,
    "lng": -68.516667,
    "alt": 87,
    "tz": "America/Toronto"
  },
  {
    "name": "Fairmont Hot Springs",
    "city": "Coral Harbour, Canada",
    "iata_faa": "YZS",
    "icao": "CYCZ",
    "lat": 64.193333,
    "lng": -83.359444,
    "alt": 2661,
    "tz": "America/Coral_Harbour"
  },
  {
    "name": "Dawson City",
    "city": "Dawson, Canada",
    "iata_faa": "YDA",
    "icao": "CYDA",
    "lat": 64.043056,
    "lng": -139.127778,
    "alt": 1215,
    "tz": "America/Vancouver"
  },
  {
    "name": "Burwash",
    "city": "Burwash, Canada",
    "iata_faa": "YDB",
    "icao": "CYDB",
    "lat": 61.371111,
    "lng": -139.040556,
    "alt": 2647,
    "tz": "America/Vancouver"
  },
  {
    "name": "Princeton",
    "city": "Princeton, Canada",
    "iata_faa": "YDC",
    "icao": "CYDC",
    "lat": 49.468056,
    "lng": -120.511389,
    "alt": 2298,
    "tz": "America/Vancouver"
  },
  {
    "name": "Deer Lake",
    "city": "Deer Lake, Canada",
    "iata_faa": "YDF",
    "icao": "CYDF",
    "lat": 49.210833,
    "lng": -57.391388,
    "alt": 72,
    "tz": "America/St_Johns"
  },
  {
    "name": "Dease Lake",
    "city": "Dease Lake, Canada",
    "iata_faa": "YDL",
    "icao": "CYDL",
    "lat": 58.422222,
    "lng": -130.032222,
    "alt": 2600,
    "tz": "America/Vancouver"
  },
  {
    "name": "Dauphin Barker",
    "city": "Dauphin, Canada",
    "iata_faa": "YDN",
    "icao": "CYDN",
    "lat": 51.100834,
    "lng": -100.0525,
    "alt": 999,
    "tz": "America/Winnipeg"
  },
  {
    "name": "Dawson Creek",
    "city": "Dawson Creek, Canada",
    "iata_faa": "YDQ",
    "icao": "CYDQ",
    "lat": 55.742333,
    "lng": -120.183,
    "alt": 2148,
    "tz": "America/Dawson_Creek"
  },
  {
    "name": "Edmonton Intl",
    "city": "Edmonton, Canada",
    "iata_faa": "YEG",
    "icao": "CYEG",
    "lat": 53.309723,
    "lng": -113.579722,
    "alt": 2373,
    "tz": "America/Edmonton"
  },
  {
    "name": "Arviat",
    "city": "Eskimo Point, Canada",
    "iata_faa": "YEK",
    "icao": "CYEK",
    "lat": 61.094166,
    "lng": -94.070833,
    "alt": 32,
    "tz": "America/Winnipeg"
  },
  {
    "name": "Estevan",
    "city": "Estevan, Canada",
    "iata_faa": "YEN",
    "icao": "CYEN",
    "lat": 49.210278,
    "lng": -102.965833,
    "alt": 1905,
    "tz": "America/Regina"
  },
  {
    "name": "Edson",
    "city": "Edson, Canada",
    "iata_faa": "YET",
    "icao": "CYET",
    "lat": 53.578888,
    "lng": -116.465,
    "alt": 3041,
    "tz": "America/Edmonton"
  },
  {
    "name": "Eureka",
    "city": "Eureka, Canada",
    "iata_faa": "YEU",
    "icao": "CYEU",
    "lat": 79.994722,
    "lng": -85.814167,
    "alt": 256,
    "tz": "America/Winnipeg"
  },
  {
    "name": "Inuvik Mike Zubko",
    "city": "Inuvik, Canada",
    "iata_faa": "YEV",
    "icao": "CYEV",
    "lat": 68.304167,
    "lng": -133.482778,
    "alt": 224,
    "tz": "America/Edmonton"
  },
  {
    "name": "Iqaluit",
    "city": "Iqaluit, Canada",
    "iata_faa": "YFB",
    "icao": "CYFB",
    "lat": 63.75639,
    "lng": -68.555832,
    "alt": 110,
    "tz": "America/Toronto"
  },
  {
    "name": "Fredericton",
    "city": "Fredericton, Canada",
    "iata_faa": "YFC",
    "icao": "CYFC",
    "lat": 45.868889,
    "lng": -66.537222,
    "alt": 68,
    "tz": "America/Halifax"
  },
  {
    "name": "Forestville",
    "city": "Forestville, Canada",
    "icao": "CYFE",
    "lat": 48.746111,
    "lng": -69.097222,
    "alt": 293,
    "tz": "America/Toronto"
  },
  {
    "name": "Flin Flon",
    "city": "Flin Flon, Canada",
    "iata_faa": "YFO",
    "icao": "CYFO",
    "lat": 54.678055,
    "lng": -101.681667,
    "alt": 997,
    "tz": "America/Winnipeg"
  },
  {
    "name": "Fort Resolution",
    "city": "Fort Resolution, Canada",
    "iata_faa": "YFR",
    "icao": "CYFR",
    "lat": 61.180832,
    "lng": -113.689722,
    "alt": 526,
    "tz": "America/Edmonton"
  },
  {
    "name": "Fort Simpson",
    "city": "Fort Simpson, Canada",
    "iata_faa": "YFS",
    "icao": "CYFS",
    "lat": 61.760153,
    "lng": -121.236525,
    "alt": 555,
    "tz": "America/Edmonton"
  },
  {
    "name": "Kingston",
    "city": "Kingston, Canada",
    "iata_faa": "YGK",
    "icao": "CYGK",
    "lat": 44.225277,
    "lng": -76.596944,
    "alt": 305,
    "tz": "America/Toronto"
  },
  {
    "name": "La Grande Riviere",
    "city": "La Grande Riviere, Canada",
    "iata_faa": "YGL",
    "icao": "CYGL",
    "lat": 53.625278,
    "lng": -77.704167,
    "alt": 639,
    "tz": "America/Toronto"
  },
  {
    "name": "Gaspe",
    "city": "Gaspe, Canada",
    "iata_faa": "YGP",
    "icao": "CYGP",
    "lat": 48.775278,
    "lng": -64.478611,
    "alt": 108,
    "tz": "America/Toronto"
  },
  {
    "name": "Geraldton Greenstone Regional",
    "city": "Geraldton, Canada",
    "iata_faa": "YGQ",
    "icao": "CYGQ",
    "lat": 49.778332,
    "lng": -86.939445,
    "alt": 1144,
    "tz": "America/Toronto"
  },
  {
    "name": "Iles De La Madeleine",
    "city": "Iles De La Madeleine, Canada",
    "iata_faa": "YGR",
    "icao": "CYGR",
    "lat": 47.424721,
    "lng": -61.778056,
    "alt": 35,
    "tz": "America/Toronto"
  },
  {
    "name": "Hudson Bay",
    "city": "Hudson Bay, Canada",
    "iata_faa": "YHB",
    "icao": "CYHB",
    "lat": 52.816666,
    "lng": -102.31139,
    "alt": 1175,
    "tz": "America/Regina"
  },
  {
    "name": "Dryden Rgnl",
    "city": "Dryden, Canada",
    "iata_faa": "YHD",
    "icao": "CYHD",
    "lat": 49.831667,
    "lng": -92.744167,
    "alt": 1354,
    "tz": "America/Winnipeg"
  },
  {
    "name": "Ulukhaktok Holman",
    "city": "Holman Island, Canada",
    "iata_faa": "YHI",
    "icao": "CYHI",
    "lat": 70.762778,
    "lng": -117.806111,
    "alt": 117,
    "tz": "America/Edmonton"
  },
  {
    "name": "Gjoa Haven",
    "city": "Gjoa Haven, Canada",
    "iata_faa": "YHK",
    "icao": "CYHK",
    "lat": 68.635556,
    "lng": -95.849722,
    "alt": 152,
    "tz": "America/Edmonton"
  },
  {
    "name": "Hamilton",
    "city": "Hamilton, Canada",
    "iata_faa": "YHM",
    "icao": "CYHM",
    "lat": 43.173611,
    "lng": -79.935,
    "alt": 780,
    "tz": "America/Toronto"
  },
  {
    "name": "St Hubert",
    "city": "Montreal, Canada",
    "iata_faa": "YHU",
    "icao": "CYHU",
    "lat": 45.5175,
    "lng": -73.416944,
    "alt": 90,
    "tz": "America/Toronto"
  },
  {
    "name": "Hay River",
    "city": "Hay River, Canada",
    "iata_faa": "YHY",
    "icao": "CYHY",
    "lat": 60.839722,
    "lng": -115.782778,
    "alt": 543,
    "tz": "America/Edmonton"
  },
  {
    "name": "Halifax Intl",
    "city": "Halifax, Canada",
    "iata_faa": "YHZ",
    "icao": "CYHZ",
    "lat": 44.880833,
    "lng": -63.50861,
    "alt": 477,
    "tz": "America/Halifax"
  },
  {
    "name": "Atikokan Muni",
    "city": "Atikokan, Canada",
    "iata_faa": "YIB",
    "icao": "CYIB",
    "lat": 48.773888,
    "lng": -91.638611,
    "alt": 1408,
    "tz": "America/Coral_Harbour"
  },
  {
    "name": "Pond Inlet",
    "city": "Pond Inlet, Canada",
    "iata_faa": "YIO",
    "icao": "CYIO",
    "lat": 72.683334,
    "lng": -77.966667,
    "alt": 181,
    "tz": "America/Toronto"
  },
  {
    "name": "St Jean",
    "city": "St. Jean, Canada",
    "iata_faa": "YJN",
    "icao": "CYJN",
    "lat": 45.294445,
    "lng": -73.281111,
    "alt": 136,
    "tz": "America/Toronto"
  },
  {
    "name": "Stephenville",
    "city": "Stephenville, Canada",
    "iata_faa": "YJT",
    "icao": "CYJT",
    "lat": 48.544167,
    "lng": -58.549999,
    "alt": 80,
    "tz": "America/St_Johns"
  },
  {
    "name": "Kamloops",
    "city": "Kamloops, Canada",
    "iata_faa": "YKA",
    "icao": "CYKA",
    "lat": 50.702222,
    "lng": -120.444444,
    "alt": 1133,
    "tz": "America/Vancouver"
  },
  {
    "name": "Waterloo",
    "city": "Waterloo, Canada",
    "iata_faa": "YKF",
    "icao": "CYKF",
    "lat": 43.460833,
    "lng": -80.378611,
    "alt": 1054,
    "tz": "America/Toronto"
  },
  {
    "name": "Schefferville",
    "city": "Schefferville, Canada",
    "iata_faa": "YKL",
    "icao": "CYKL",
    "lat": 54.805278,
    "lng": -66.805278,
    "alt": 1709,
    "tz": "America/Toronto"
  },
  {
    "name": "Kindersley",
    "city": "Kindersley, Canada",
    "iata_faa": "YKY",
    "icao": "CYKY",
    "lat": 51.5175,
    "lng": -109.180833,
    "alt": 2277,
    "tz": "America/Regina"
  },
  {
    "name": "Buttonville Muni",
    "city": "Toronto, Canada",
    "iata_faa": "YKZ",
    "icao": "CYKZ",
    "lat": 43.862221,
    "lng": -79.37,
    "alt": 650,
    "tz": "America/Toronto"
  },
  {
    "name": "Chapleau",
    "city": "Chapleau, Canada",
    "iata_faa": "YLD",
    "icao": "CYLD",
    "lat": 47.82,
    "lng": -83.346667,
    "alt": 1470,
    "tz": "America/Toronto"
  },
  {
    "name": "Meadow Lake",
    "city": "Meadow Lake, Canada",
    "iata_faa": "YLJ",
    "icao": "CYLJ",
    "lat": 54.125278,
    "lng": -108.522778,
    "alt": 1576,
    "tz": "America/Regina"
  },
  {
    "name": "Lloydminster",
    "city": "Lloydminster, Canada",
    "iata_faa": "YLL",
    "icao": "CYLL",
    "lat": 53.309166,
    "lng": -110.0725,
    "alt": 2193,
    "tz": "America/Edmonton"
  },
  {
    "name": "Alert",
    "city": "Alert, Canada",
    "iata_faa": "YLT",
    "icao": "CYLT",
    "lat": 82.517778,
    "lng": -62.280556,
    "alt": 100,
    "tz": "America/Toronto"
  },
  {
    "name": "Kelowna",
    "city": "Kelowna, Canada",
    "iata_faa": "YLW",
    "icao": "CYLW",
    "lat": 49.956112,
    "lng": -119.377778,
    "alt": 1409,
    "tz": "America/Vancouver"
  },
  {
    "name": "Mayo",
    "city": "Mayo, Canada",
    "iata_faa": "YMA",
    "icao": "CYMA",
    "lat": 63.616389,
    "lng": -135.868333,
    "alt": 1653,
    "tz": "America/Vancouver"
  },
  {
    "name": "Moose Jaw Air Vice Marshal C M Mcewen",
    "city": "Moose Jaw, Canada",
    "iata_faa": "YMJ",
    "icao": "CYMJ",
    "lat": 50.330278,
    "lng": -105.559167,
    "alt": 1892,
    "tz": "America/Regina"
  },
  {
    "name": "Fort Mcmurray",
    "city": "Fort Mcmurray, Canada",
    "iata_faa": "YMM",
    "icao": "CYMM",
    "lat": 56.653333,
    "lng": -111.221944,
    "alt": 1211,
    "tz": "America/Edmonton"
  },
  {
    "name": "Moosonee",
    "city": "Moosonee, Canada",
    "iata_faa": "YMO",
    "icao": "CYMO",
    "lat": 51.291111,
    "lng": -80.607778,
    "alt": 30,
    "tz": "America/Toronto"
  },
  {
    "name": "Maniwaki",
    "city": "Maniwaki, Canada",
    "iata_faa": "YMW",
    "icao": "CYMW",
    "lat": 46.272778,
    "lng": -75.990556,
    "alt": 656,
    "tz": "America/Toronto"
  },
  {
    "name": "Montreal Intl Mirabel",
    "city": "Montreal, Canada",
    "iata_faa": "YMX",
    "icao": "CYMX",
    "lat": 45.681944,
    "lng": -74.005278,
    "alt": 270,
    "tz": "America/Toronto"
  },
  {
    "name": "Natashquan",
    "city": "Natashquan, Canada",
    "iata_faa": "YNA",
    "icao": "CYNA",
    "lat": 50.19,
    "lng": -61.789167,
    "alt": 39,
    "tz": "America/Toronto"
  },
  {
    "name": "Gatineau",
    "city": "Gatineau, Canada",
    "iata_faa": "YND",
    "icao": "CYND",
    "lat": 45.521694,
    "lng": -75.563589,
    "alt": 211,
    "tz": "America/Toronto"
  },
  {
    "name": "Matagami",
    "city": "Matagami, Canada",
    "iata_faa": "YNM",
    "icao": "CYNM",
    "lat": 49.761667,
    "lng": -77.802778,
    "alt": 918,
    "tz": "America/Toronto"
  },
  {
    "name": "Old Crow",
    "city": "Old Crow, Canada",
    "iata_faa": "YOC",
    "icao": "CYOC",
    "lat": 67.570556,
    "lng": -139.839167,
    "alt": 824,
    "tz": "America/Vancouver"
  },
  {
    "name": "Cold Lake",
    "city": "Cold Lake, Canada",
    "iata_faa": "YOD",
    "icao": "CYOD",
    "lat": 54.404999,
    "lng": -110.279444,
    "alt": 1775,
    "tz": "America/Edmonton"
  },
  {
    "name": "High Level",
    "city": "High Level, Canada",
    "iata_faa": "YOJ",
    "icao": "CYOJ",
    "lat": 58.621389,
    "lng": -117.164722,
    "alt": 1110,
    "tz": "America/Edmonton"
  },
  {
    "name": "Ottawa Macdonald Cartier Intl",
    "city": "Ottawa, Canada",
    "iata_faa": "YOW",
    "icao": "CYOW",
    "lat": 45.3225,
    "lng": -75.669167,
    "alt": 374,
    "tz": "America/Toronto"
  },
  {
    "name": "Prince Albert Glass Field",
    "city": "Prince Albert, Canada",
    "iata_faa": "YPA",
    "icao": "CYPA",
    "lat": 53.214167,
    "lng": -105.672778,
    "alt": 1405,
    "tz": "America/Regina"
  },
  {
    "name": "Peace River",
    "city": "Peace River, Canada",
    "iata_faa": "YPE",
    "icao": "CYPE",
    "lat": 56.226944,
    "lng": -117.447222,
    "alt": 1873,
    "tz": "America/Edmonton"
  },
  {
    "name": "Southport",
    "city": "Portage-la-prairie, Canada",
    "iata_faa": "YPG",
    "icao": "CYPG",
    "lat": 49.903056,
    "lng": -98.273889,
    "alt": 885,
    "tz": "America/Winnipeg"
  },
  {
    "name": "Pitt Meadows",
    "city": "Pitt Meadows, Canada",
    "icao": "CYPK",
    "lat": 49.21611,
    "lng": -122.71,
    "alt": 11,
    "tz": "America/Vancouver"
  },
  {
    "name": "Pickle Lake",
    "city": "Pickle Lake, Canada",
    "iata_faa": "YPL",
    "icao": "CYPL",
    "lat": 51.446388,
    "lng": -90.214167,
    "alt": 1267,
    "tz": "America/Coral_Harbour"
  },
  {
    "name": "Port Menier",
    "city": "Port Menier, Canada",
    "iata_faa": "YPN",
    "icao": "CYPN",
    "lat": 49.836389,
    "lng": -64.288611,
    "alt": 167,
    "tz": "America/Toronto"
  },
  {
    "name": "Peterborough",
    "city": "Peterborough, Canada",
    "iata_faa": "YPQ",
    "icao": "CYPQ",
    "lat": 44.23,
    "lng": -78.363333,
    "alt": 628,
    "tz": "America/Toronto"
  },
  {
    "name": "Prince Rupert",
    "city": "Prince Pupert, Canada",
    "iata_faa": "YPR",
    "icao": "CYPR",
    "lat": 54.28611,
    "lng": -130.444722,
    "alt": 116,
    "tz": "America/Vancouver"
  },
  {
    "name": "Fort Chipewyan",
    "city": "Fort Chipewyan, Canada",
    "iata_faa": "YPY",
    "icao": "CYPY",
    "lat": 58.767223,
    "lng": -111.117222,
    "alt": 761,
    "tz": "America/Edmonton"
  },
  {
    "name": "Muskoka",
    "city": "Muskoka, Canada",
    "iata_faa": "YQA",
    "icao": "CYQA",
    "lat": 44.974722,
    "lng": -79.303333,
    "alt": 925,
    "tz": "America/Toronto"
  },
  {
    "name": "Quebec Jean Lesage Intl",
    "city": "Quebec, Canada",
    "iata_faa": "YQB",
    "icao": "CYQB",
    "lat": 46.791111,
    "lng": -71.393333,
    "alt": 244,
    "tz": "America/Toronto"
  },
  {
    "name": "Red Deer Regional",
    "city": "Red Deer Industrial, Canada",
    "iata_faa": "YQF",
    "icao": "CYQF",
    "lat": 52.182222,
    "lng": -113.894444,
    "alt": 2968,
    "tz": "America/Edmonton"
  },
  {
    "name": "Windsor",
    "city": "Windsor, Canada",
    "iata_faa": "YQG",
    "icao": "CYQG",
    "lat": 42.275556,
    "lng": -82.955556,
    "alt": 622,
    "tz": "America/Toronto"
  },
  {
    "name": "Watson Lake",
    "city": "Watson Lake, Canada",
    "iata_faa": "YQH",
    "icao": "CYQH",
    "lat": 60.116389,
    "lng": -128.8225,
    "alt": 2255,
    "tz": "America/Vancouver"
  },
  {
    "name": "Kenora",
    "city": "Kenora, Canada",
    "iata_faa": "YQK",
    "icao": "CYQK",
    "lat": 49.788334,
    "lng": -94.363056,
    "alt": 1332,
    "tz": "America/Winnipeg"
  },
  {
    "name": "Lethbridge",
    "city": "Lethbridge, Canada",
    "iata_faa": "YQL",
    "icao": "CYQL",
    "lat": 49.630278,
    "lng": -112.799722,
    "alt": 3047,
    "tz": "America/Edmonton"
  },
  {
    "name": "Greater Moncton Intl",
    "city": "Moncton, Canada",
    "iata_faa": "YQM",
    "icao": "CYQM",
    "lat": 46.112221,
    "lng": -64.678611,
    "alt": 232,
    "tz": "America/Halifax"
  },
  {
    "name": "Comox",
    "city": "Comox, Canada",
    "iata_faa": "YQQ",
    "icao": "CYQQ",
    "lat": 49.710833,
    "lng": -124.886667,
    "alt": 84,
    "tz": "America/Vancouver"
  },
  {
    "name": "Regina Intl",
    "city": "Regina, Canada",
    "iata_faa": "YQR",
    "icao": "CYQR",
    "lat": 50.431944,
    "lng": -104.665833,
    "alt": 1894,
    "tz": "America/Regina"
  },
  {
    "name": "Thunder Bay",
    "city": "Thunder Bay, Canada",
    "iata_faa": "YQT",
    "icao": "CYQT",
    "lat": 48.371944,
    "lng": -89.323889,
    "alt": 653,
    "tz": "America/Toronto"
  },
  {
    "name": "Grande Prairie",
    "city": "Grande Prairie, Canada",
    "iata_faa": "YQU",
    "icao": "CYQU",
    "lat": 55.179722,
    "lng": -118.885,
    "alt": 2195,
    "tz": "America/Edmonton"
  },
  {
    "name": "Yorkton Muni",
    "city": "Yorkton, Canada",
    "iata_faa": "YQV",
    "icao": "CYQV",
    "lat": 51.264721,
    "lng": -102.461667,
    "alt": 1635,
    "tz": "America/Regina"
  },
  {
    "name": "North Battleford",
    "city": "North Battleford, Canada",
    "iata_faa": "YQW",
    "icao": "CYQW",
    "lat": 52.769167,
    "lng": -108.24361,
    "alt": 1799,
    "tz": "America/Regina"
  },
  {
    "name": "Gander Intl",
    "city": "Gander, Canada",
    "iata_faa": "YQX",
    "icao": "CYQX",
    "lat": 48.936944,
    "lng": -54.568056,
    "alt": 496,
    "tz": "America/St_Johns"
  },
  {
    "name": "Sydney",
    "city": "Sydney, Canada",
    "iata_faa": "YQY",
    "icao": "CYQY",
    "lat": 46.161388,
    "lng": -60.047779,
    "alt": 203,
    "tz": "America/Halifax"
  },
  {
    "name": "Quesnel",
    "city": "Quesnel, Canada",
    "iata_faa": "YQZ",
    "icao": "CYQZ",
    "lat": 53.026112,
    "lng": -122.510278,
    "alt": 1789,
    "tz": "America/Vancouver"
  },
  {
    "name": "Resolute Bay",
    "city": "Resolute, Canada",
    "iata_faa": "YRB",
    "icao": "CYRB",
    "lat": 74.716944,
    "lng": -94.969444,
    "alt": 215,
    "tz": "America/Winnipeg"
  },
  {
    "name": "Riviere Du Loup",
    "city": "Riviere Du Loup, Canada",
    "iata_faa": "YRI",
    "icao": "CYRI",
    "lat": 47.764444,
    "lng": -69.584722,
    "alt": 427,
    "tz": "America/Toronto"
  },
  {
    "name": "Roberval",
    "city": "Roberval, Canada",
    "iata_faa": "YRJ",
    "icao": "CYRJ",
    "lat": 48.52,
    "lng": -72.265556,
    "alt": 586,
    "tz": "America/Toronto"
  },
  {
    "name": "Rocky Mountain House",
    "city": "Rocky Mountain House, Canada",
    "iata_faa": "YRM",
    "icao": "CYRM",
    "lat": 52.429722,
    "lng": -114.904167,
    "alt": 3244,
    "tz": "America/Edmonton"
  },
  {
    "name": "Rankin Inlet",
    "city": "Rankin Inlet, Canada",
    "iata_faa": "YRT",
    "icao": "CYRT",
    "lat": 62.81139,
    "lng": -92.115833,
    "alt": 94,
    "tz": "America/Winnipeg"
  },
  {
    "name": "Sudbury",
    "city": "Sudbury, Canada",
    "iata_faa": "YSB",
    "icao": "CYSB",
    "lat": 46.625,
    "lng": -80.798889,
    "alt": 1141,
    "tz": "America/Toronto"
  },
  {
    "name": "Sherbrooke",
    "city": "Sherbrooke, Canada",
    "iata_faa": "YSC",
    "icao": "CYSC",
    "lat": 45.438611,
    "lng": -71.691389,
    "alt": 792,
    "tz": "America/Toronto"
  },
  {
    "name": "Saint John",
    "city": "St. John, Canada",
    "iata_faa": "YSJ",
    "icao": "CYSJ",
    "lat": 45.316111,
    "lng": -65.890278,
    "alt": 357,
    "tz": "America/Halifax"
  },
  {
    "name": "Fort Smith",
    "city": "Fort Smith, Canada",
    "iata_faa": "YSM",
    "icao": "CYSM",
    "lat": 60.020278,
    "lng": -111.961944,
    "alt": 671,
    "tz": "America/Edmonton"
  },
  {
    "name": "Nanisivik",
    "city": "Nanisivik, Canada",
    "iata_faa": "YSR",
    "icao": "CYSR",
    "lat": 72.982222,
    "lng": -84.613611,
    "alt": 2106,
    "tz": "America/Toronto"
  },
  {
    "name": "Summerside",
    "city": "Summerside, Canada",
    "iata_faa": "YSU",
    "icao": "CYSU",
    "lat": 46.440556,
    "lng": -63.833611,
    "alt": 56,
    "tz": "America/Halifax"
  },
  {
    "name": "Sachs Harbour",
    "city": "Sachs Harbour, Canada",
    "iata_faa": "YSY",
    "icao": "CYSY",
    "lat": 71.993889,
    "lng": -125.2425,
    "alt": 282
  }
]
